colonia,calle,No.Casa,C.P.,Ciudad,lat,lon,geo_status,direccion_consultada
GENERAL REAL,PENSADOR MEXICA,1070,44400,Guadalajara,20.665244,-103.3312763,OK,"PENSADOR MEXICA 1070, GENERAL REAL, 44400, Guadalajara, México"
JARDINES DEL NILO,MANUEL RIVERA C,2818,44860,Guadalajara,20.6446505,-103.2885224,OK,"MANUEL RIVERA C 2818, JARDINES DEL NILO, 44860, Guadalajara, México"
OBREROS D L CONSTRUC,ABEDUL,274,44900,Guadalajara,,,ZERO_RESULTS,"ABEDUL 274, OBREROS D L CONSTRUC, 44900, Guadalajara, México"
DIVISION DL NTE ZAP,FRANCISCO VILLA,27,45180,zapopan,20.7327168,-103.3545248,OK,"FRANCISCO VILLA 27, DIVISION DL NTE ZAP, 45180, zapopan, México"
LOMAS DE MIRAMAR,URANIO,31,45060,zapopan,,,ZERO_RESULTS,"URANIO 31, LOMAS DE MIRAMAR, 45060, zapopan, México"
RESIDENCIAL AZALEAS,SERVIDOR PUBLIC,1425,45230,zapopan,,,ZERO_RESULTS,"SERVIDOR PUBLIC 1425, RESIDENCIAL AZALEAS, 45230, zapopan, México"
HELIODORO HERNANDEZ,MIGUEL SANCHEZ,3789,44720,Guadalajara,20.6948636,-103.2781313,OK,"MIGUEL SANCHEZ 3789, HELIODORO HERNANDEZ, 44720, Guadalajara, México"
UNIDAD JARDINES SEAT,JARDINES DE LOS,1233,45180,zapopan,20.7361467,-103.3527111,OK,"JARDINES DE LOS 1233, UNIDAD JARDINES SEAT, 45180, zapopan, México"
EL ZAPOTE,TEZOZOMOC,4357,45050,zapopan,20.6546308,-103.415381,OK,"TEZOZOMOC 4357, EL ZAPOTE, 45050, zapopan, México"
REVOLUCION SEGUNDA SECCION,REVOLUCION,51,45200,zapopan,20.8271097,-103.4344083,OK,"REVOLUCION 51, REVOLUCION SEGUNDA SECCION, 45200, zapopan, México"
EL MANANTIAL S REFOR,AVDE LA PATRIA,202,44470,Guadalajara,20.6220647,-103.3430786,OK,"AVDE LA PATRIA 202, EL MANANTIAL S REFOR, 44470, Guadalajara, México"
TETLAN,AURELIA GUEVARA,3518,44820,Guadalajara,,,ZERO_RESULTS,"AURELIA GUEVARA 3518, TETLAN, 44820, Guadalajara, México"
DIVISION DEL NORTE,BENEDICTO LOPEZ,399,44230,Guadalajara,20.7233681,-103.3372547,OK,"BENEDICTO LOPEZ 399, DIVISION DEL NORTE, 44230, Guadalajara, México"
RANCHO NUEVO,CELERINO NAVARR,4135,44240,zapopan,20.7173252,-103.3226322,OK,"CELERINO NAVARR 4135, RANCHO NUEVO, 44240, zapopan, México"
OBLATOS PONIENTE,HACIENDA LA GAV,3208,44700,Guadalajara,,,ZERO_RESULTS,"HACIENDA LA GAV 3208, OBLATOS PONIENTE, 44700, Guadalajara, México"
LA ESTRADA,HIDALAGO,6,45200,zapopan,20.7928023,-103.475746,OK,"HIDALAGO 6, LA ESTRADA, 45200, zapopan, México"
COPALITA,AV AMARANTO,175,45200,zapopan,20.8101768,-103.4544621,OK,"AV AMARANTO 175, COPALITA, 45200, zapopan, México"
LOMAS DE MIRAMAR,PUERTO CHAMELA,314,45060,zapopan,20.6386782,-103.4497318,OK,"PUERTO CHAMELA 314, LOMAS DE MIRAMAR, 45060, zapopan, México"
MORELOS,PELICANO,1272,44910,Guadalajara,20.6492816,-103.3565418,OK,"PELICANO 1272, MORELOS, 44910, Guadalajara, México"
REAL DE VALDEPE?S,CALLE G 1470 TO,1470,45130,zapopan,20.7571926,-103.3969976,OK,"CALLE G 1470 TO 1470, REAL DE VALDEPE?S, 45130, zapopan, México"
SAN CARLOS,LOS ANGELES,171,44460,Guadalajara,20.6580261,-103.3420607,OK,"LOS ANGELES 171, SAN CARLOS, 44460, Guadalajara, México"
VILLA FONTANA DIAMANTE,ARENISCA,1896,45200,zapopan,20.7793015,-103.4709142,OK,"ARENISCA 1896, VILLA FONTANA DIAMANTE, 45200, zapopan, México"
INDEPENDENCIA PTE,ROGELIO BACON,1676,44290,Guadalajara,20.704908,-103.3332698,OK,"ROGELIO BACON 1676, INDEPENDENCIA PTE, 44290, Guadalajara, México"
ARENALES TAPATIOS,DIAMANTE,114,45066,zapopan,20.6340227,-103.4564579,OK,"DIAMANTE 114, ARENALES TAPATIOS, 45066, zapopan, México"
LOMAS DL PARAISO 1,RAFAEL CARDENAS,290,44250,Guadalajara,20.7248011,-103.3191934,OK,"RAFAEL CARDENAS 290, LOMAS DL PARAISO 1, 44250, Guadalajara, México"
HERMOSA PROVIN ZO TE,ARQUIMIDES,630,44770,Guadalajara,20.6710634,-103.2859073,OK,"ARQUIMIDES 630, HERMOSA PROVIN ZO TE, 44770, Guadalajara, México"
MIGUEL HIDALGO,15 DE SEPTIEMBR,3017,45186,zapopan,20.748824,-103.3408841,OK,"15 DE SEPTIEMBR 3017, MIGUEL HIDALGO, 45186, zapopan, México"
LADRON DE GUEVARA,FRAY LUIS DE PA,443,44600,Guadalajara,20.6769383,-103.3717253,OK,"FRAY LUIS DE PA 443, LADRON DE GUEVARA, 44600, Guadalajara, México"
AGRICOLA,DALIA,138,45236,zapopan,20.6164199,-103.4309929,OK,"DALIA 138, AGRICOLA, 45236, zapopan, México"
INDEPENDENCIA,ROGELIO BACON,2280,44290,Guadalajara,20.704908,-103.3332698,OK,"ROGELIO BACON 2280, INDEPENDENCIA, 44290, Guadalajara, México"
GENERAL REAL,MARCONI,17,44400,Guadalajara,20.6682224,-103.3241833,OK,"MARCONI 17, GENERAL REAL, 44400, Guadalajara, México"
GARIBAY,DAMASCO,785,44750,Guadalajara,20.6736568,-103.295105,OK,"DAMASCO 785, GARIBAY, 44750, Guadalajara, México"
TETLAN,GIGANTES,108,44820,Guadalajara,,,ZERO_RESULTS,"GIGANTES 108, TETLAN, 44820, Guadalajara, México"
VILLAS SAN IGNACIO,PABLO QUIROGA,215,45180,zapopan,20.724594,-103.3668962,OK,"PABLO QUIROGA 215, VILLAS SAN IGNACIO, 45180, zapopan, México"
GUADALUPANA,CELEDONIO PADIL,2162,44220,Guadalajara,20.710623,-103.3553701,OK,"CELEDONIO PADIL 2162, GUADALUPANA, 44220, Guadalajara, México"
REAL DE VALDEPE?S,ALAMBIQUE,51,45130,zapopan,20.7561115,-103.4015168,OK,"ALAMBIQUE 51, REAL DE VALDEPE?S, 45130, zapopan, México"
VALLE REAL,AV RAMON CORONA,2748,45019,zapopan,20.7350169,-103.4591247,OK,"AV RAMON CORONA 2748, VALLE REAL, 45019, zapopan, México"
VIGIA I,DEL CORRAL,604,45140,zapopan,20.7316505,-103.3952503,OK,"DEL CORRAL 604, VIGIA I, 45140, zapopan, México"
REAL DE TESISTAN,PRIVADA EMILIAN,28,45200,zapopan,20.7849879,-103.4749095,OK,"PRIVADA EMILIAN 28, REAL DE TESISTAN, 45200, zapopan, México"
RINCONADA DE HUENTITAN,JUAN CARRASCO,5234,44250,Guadalajara,20.7334817,-103.3218215,OK,"JUAN CARRASCO 5234, RINCONADA DE HUENTITAN, 44250, Guadalajara, México"
LOMAS DEL REFUGIO,AGUA PRIETA,111,45186,zapopan,20.7411317,-103.3355912,OK,"AGUA PRIETA 111, LOMAS DEL REFUGIO, 45186, zapopan, México"
INF LA TUZANIA,CAPULINES,40,45138,zapopan,20.7318725,-103.4131699,OK,"CAPULINES 40, INF LA TUZANIA, 45138, zapopan, México"
MIRAVALLE,MAURICIO CAMPOS,512,44990,Guadalajara,20.6099475,-103.344742,OK,"MAURICIO CAMPOS 512, MIRAVALLE, 44990, Guadalajara, México"
HIGUERILLAS,MARIANO RODRIGU,2669,44470,Guadalajara,20.6327983,-103.3489234,OK,"MARIANO RODRIGU 2669, HIGUERILLAS, 44470, Guadalajara, México"
FRACC LOS PINOS,AV  COMPOSITORE,3850,45120,zapopan,20.6788618,-103.4074211,OK,"AV  COMPOSITORE 3850, FRACC LOS PINOS, 45120, zapopan, México"
VALLE REAL,PASEO SAN ARTUR,685,45019,zapopan,20.724178,-103.4464948,OK,"PASEO SAN ARTUR 685, VALLE REAL, 45019, zapopan, México"
JARDINES D NVO MEXIC,SEXTA PTE,535,45138,zapopan,20.7693541,-103.453446,OK,"SEXTA PTE 535, JARDINES D NVO MEXIC, 45138, zapopan, México"
LA HACIENDITA,SAN MARTIN,2341,45230,zapopan,20.614487,-103.4510511,OK,"SAN MARTIN 2341, LA HACIENDITA, 45230, zapopan, México"
REAL QUINTAS DEL VALLE,CIRCUITO REAL S,0,45138,zapopan,20.7531188,-103.4361485,OK,"CIRCUITO REAL S 0, REAL QUINTAS DEL VALLE, 45138, zapopan, México"
U H LAZARO CARDENAS,OTHON BLANCO CA,4087,44490,Guadalajara,,,ZERO_RESULTS,"OTHON BLANCO CA 4087, U H LAZARO CARDENAS, 44490, Guadalajara, México"
LOMAS DE POLANCO,JOSE CARRILLO,3528,44960,Guadalajara,20.6307928,-103.3795393,OK,"JOSE CARRILLO 3528, LOMAS DE POLANCO, 44960, Guadalajara, México"
UNIDAD BELISARIO DOM,JOSE LUIS MORA,1212,44329,Guadalajara,20.6847872,-103.3218364,OK,"JOSE LUIS MORA 1212, UNIDAD BELISARIO DOM, 44329, Guadalajara, México"
MIRAVALLE,JOSE JARAMILLO,526,44990,Guadalajara,20.6155611,-103.3527505,OK,"JOSE JARAMILLO 526, MIRAVALLE, 44990, Guadalajara, México"
OBLATOS,BATALLA DE IZUC,2508,44700,Guadalajara,20.6958496,-103.2980962,OK,"BATALLA DE IZUC 2508, OBLATOS, 44700, Guadalajara, México"
FRACC REAL DEL BOSQUE,CALLE CAMPO REA,371,45130,zapopan,20.7553494,-103.3950919,OK,"CALLE CAMPO REA 371, FRACC REAL DEL BOSQUE, 45130, zapopan, México"
FRACC CUSPIDE,CAMINO AL POTRE,1200,45200,zapopan,20.8038746,-103.4967173,OK,"CAMINO AL POTRE 1200, FRACC CUSPIDE, 45200, zapopan, México"
DIVISION DEL NORTE,SILVINA REMBOA,3050,44230,Guadalajara,20.7238915,-103.3364848,OK,"SILVINA REMBOA 3050, DIVISION DEL NORTE, 44230, Guadalajara, México"
CONJ LOMAS ALTAS,PASEO DEL ARCO,4098,45128,zapopan,,,ZERO_RESULTS,"PASEO DEL ARCO 4098, CONJ LOMAS ALTAS, 45128, zapopan, México"
SANTA ROSA,MELQUIADES CAMP,2289,44700,Guadalajara,,,ZERO_RESULTS,"MELQUIADES CAMP 2289, SANTA ROSA, 44700, Guadalajara, México"
ECHEVERRIA,JOSE ARTEAGA,2985,44970,Guadalajara,20.6256839,-103.3666996,OK,"JOSE ARTEAGA 2985, ECHEVERRIA, 44970, Guadalajara, México"
RINCONADA DEL BOSQUE,AV ECONOMOS,6951,44510,Guadalajara,,,ZERO_RESULTS,"AV ECONOMOS 6951, RINCONADA DEL BOSQUE, 44510, Guadalajara, México"
TABACHINES,PASEO DE LOS AV,3101,45188,zapopan,20.7408232,-103.3687889,OK,"PASEO DE LOS AV 3101, TABACHINES, 45188, zapopan, México"
MESA COLORADA PTE,DELLI,1825,45189,zapopan,20.7705003,-103.3479558,OK,"DELLI 1825, MESA COLORADA PTE, 45189, zapopan, México"
EL COLLY URBANO I,MELCHOR OCAMPO,1233,45070,zapopan,20.6448667,-103.4405716,OK,"MELCHOR OCAMPO 1233, EL COLLY URBANO I, 45070, zapopan, México"
PRADOS TEPEYAC,PRADO DE LAS RO,308,45050,zapopan,,,ZERO_RESULTS,"PRADO DE LAS RO 308, PRADOS TEPEYAC, 45050, zapopan, México"
ARENALES TAPATIOS,CROMITA,69,45066,zapopan,20.6333153,-103.4591793,OK,"CROMITA 69, ARENALES TAPATIOS, 45066, zapopan, México"
RESIDENCIAL TESISTAN,AV SAN MATEO,1115,45200,zapopan,20.7943588,-103.4682866,OK,"AV SAN MATEO 1115, RESIDENCIAL TESISTAN, 45200, zapopan, México"
CONDOMINIO MALAGA,AV CENTRAL,1351,45117,zapopan,,,ZERO_RESULTS,"AV CENTRAL 1351, CONDOMINIO MALAGA, 45117, zapopan, México"
RANCHO NUEVO,DOMINGO RAMIRE,1150,44240,Guadalajara,20.7209179,-103.331296,OK,"DOMINGO RAMIRE 1150, RANCHO NUEVO, 44240, Guadalajara, México"
EL BRISE#O,CONSTELACION,7,45236,zapopan,20.622525,-103.4358741,OK,"CONSTELACION 7, EL BRISE#O, 45236, zapopan, México"
MORELOS,CISNE,1332,44910,Guadalajara,20.6558177,-103.3584941,OK,"CISNE 1332, MORELOS, 44910, Guadalajara, México"
MESA COLORADA PTE,ANAHUAC,52,45189,zapopan,20.7701033,-103.3538012,OK,"ANAHUAC 52, MESA COLORADA PTE, 45189, zapopan, México"
PENAL,PEDRO CELESTINO,482,44730,Guadalajara,20.6676605,-103.3011651,OK,"PEDRO CELESTINO 482, PENAL, 44730, Guadalajara, México"
LAS AGUILAS,RIO TOMATLAN,800,45080,zapopan,20.6259866,-103.4079802,OK,"RIO TOMATLAN 800, LAS AGUILAS, 45080, zapopan, México"
BEATRIZ HERNANDEZ,GAZA,1333,44760,Guadalajara,,,ZERO_RESULTS,"GAZA 1333, BEATRIZ HERNANDEZ, 44760, Guadalajara, México"
COUNTRY CLUB,AV JORGE ALVARE,1535,44610,Guadalajara,,,ZERO_RESULTS,"AV JORGE ALVARE 1535, COUNTRY CLUB, 44610, Guadalajara, México"
TABACHINES,PASEO DE LOS CH,3040,45188,zapopan,20.7408232,-103.3687889,OK,"PASEO DE LOS CH 3040, TABACHINES, 45188, zapopan, México"
BENITO JUAREZ,JUAN MANUEL RUV,1992,45199,Guadalajara,20.7349255,-103.3399585,OK,"JUAN MANUEL RUV 1992, BENITO JUAREZ, 45199, Guadalajara, México"
JARDINES DE STA ISAB,STA MARTHA,3165,44300,Guadalajara,,,ZERO_RESULTS,"STA MARTHA 3165, JARDINES DE STA ISAB, 44300, Guadalajara, México"
LA PERLA,PEDRO LANDAZURI,733,44360,Guadalajara,20.6828464,-103.3325044,OK,"PEDRO LANDAZURI 733, LA PERLA, 44360, Guadalajara, México"
AGRICOLA,OBELISCO,138,45236,zapopan,20.6161301,-103.4323465,OK,"OBELISCO 138, AGRICOLA, 45236, zapopan, México"
BLANCO Y CUELLAR,EMILIO RABAZA,2132,44730,Guadalajara,20.6795279,-103.3046447,OK,"EMILIO RABAZA 2132, BLANCO Y CUELLAR, 44730, Guadalajara, México"
RESID LAS ARBOLEDAS,AURORA BOREAL N,4170,45070,zapopan,20.6282613,-103.4283633,OK,"AURORA BOREAL N 4170, RESID LAS ARBOLEDAS, 45070, zapopan, México"
SAN RAFAEL,CARLOS GONZALEZ,280,44810,Guadalajara,20.6570889,-103.2966814,OK,"CARLOS GONZALEZ 280, SAN RAFAEL, 44810, Guadalajara, México"
VIGIA I,HERRADURA,242,45140,zapopan,20.7327359,-103.3937991,OK,"HERRADURA 242, VIGIA I, 45140, zapopan, México"
BENITO JUAREZ,ADOLFO LOPEZ MA,4754,45199,zapopan,20.7313122,-103.3385042,OK,"ADOLFO LOPEZ MA 4754, BENITO JUAREZ, 45199, zapopan, México"
MARAVILLA,HACIENDA DE GUA,1124,44700,Guadalajara,20.70084,-103.30447,OK,"HACIENDA DE GUA 1124, MARAVILLA, 44700, Guadalajara, México"
SAN VICENTE,MONTES MARCIANO,2173,44330,Guadalajara,20.7037749,-103.3160088,OK,"MONTES MARCIANO 2173, SAN VICENTE, 44330, Guadalajara, México"
FRACC CUSPIDE,SAN MATEO 1155,27,45200,zapopan,20.7948552,-103.4680094,OK,"SAN MATEO 1155 27, FRACC CUSPIDE, 45200, zapopan, México"
LA ESPERANZA,IGUALDAD,186,44300,Guadalajara,20.7097772,-103.319574,OK,"IGUALDAD 186, LA ESPERANZA, 44300, Guadalajara, México"
JARDINES DEL COUNTRY,ENRIQUE DIAZ DE,2336,44210,Guadalajara,,,ZERO_RESULTS,"ENRIQUE DIAZ DE 2336, JARDINES DEL COUNTRY, 44210, Guadalajara, México"
FRACC MIRADOR D SN I,AV INDUSTRIA TE,2030,45133,zapopan,20.7539705,-103.3896942,OK,"AV INDUSTRIA TE 2030, FRACC MIRADOR D SN I, 45133, zapopan, México"
RESIDENC LA ESTANCIA,WOLFANG AMADEUS,5552,45030,zapopan,,,ZERO_RESULTS,"WOLFANG AMADEUS 5552, RESIDENC LA ESTANCIA, 45030, zapopan, México"
ECHEVERRIA,JOSE ROJO,958,44970,Guadalajara,20.6222964,-103.3610115,OK,"JOSE ROJO 958, ECHEVERRIA, 44970, Guadalajara, México"
OBLATOS PONIENTE,JUAN PABLO II,3165,44700,Guadalajara,20.7017889,-103.2867249,OK,"JUAN PABLO II 3165, OBLATOS PONIENTE, 44700, Guadalajara, México"
LA FLORIDA,FLORAL,15,45234,zapopan,20.5994925,-103.427324,OK,"FLORAL 15, LA FLORIDA, 45234, zapopan, México"
AGRICOLA,DALIA,138,45236,zapopan,20.6164199,-103.4309929,OK,"DALIA 138, AGRICOLA, 45236, zapopan, México"
BALCONES DE OBLATOS,HACIENDA DEL CA,2275,44720,Guadalajara,,,ZERO_RESULTS,"HACIENDA DEL CA 2275, BALCONES DE OBLATOS, 44720, Guadalajara, México"
LA FLORESTA DEL COLLI,BOULEVARD PUERT,26,45116,zapopan,20.7155297,-103.4193903,OK,"BOULEVARD PUERT 26, LA FLORESTA DEL COLLI, 45116, zapopan, México"
OBLATOS PONIENTE,HACIENDA DE LAS,2299,44700,Guadalajara,,,ZERO_RESULTS,"HACIENDA DE LAS 2299, OBLATOS PONIENTE, 44700, Guadalajara, México"
