colonia,calle,No.Casa,C.P.,Ciudad,lat,lon,geo_status,direccion_consultada,aprox_por_cp
LAGOS D OTE ZONA TET,LICURGO,336,44770,Guadalajara,20.6727086,-103.2764487,ZERO_RESULTS,"LICURGO 336, LAGOS D OTE ZONA TET, 44770, Guadalajara, México",1
HELIODORO HERNANDEZ,CELIA PACHECO,3713,44720,Guadalajara,20.6963895,-103.2787599,OK,"CELIA PACHECO 3713, HELIODORO HERNANDEZ, 44720, Guadalajara, México",0
18 DE MARZO,NATIVIDAD MACIA,1326,44960,Guadalajara,20.6333595,-103.369541,OK,"NATIVIDAD MACIA 1326, 18 DE MARZO, 44960, Guadalajara, México",0
EJIDAL LOMA BONITA,PEDRO MORENO,3308,45085,zapopan,20.6318701,-103.4051802,OK,"PEDRO MORENO 3308, EJIDAL LOMA BONITA, 45085, zapopan, México",0
CANTARRANAS,MIGUEL BERNAL,3327,44829,Guadalajara,20.6582857,-103.2879025,OK,"MIGUEL BERNAL 3327, CANTARRANAS, 44829, Guadalajara, México",0
DEL FRESNO,CIPRES,1738,44900,Guadalajara,20.6579742,-103.3660875,OK,"CIPRES 1738, DEL FRESNO, 44900, Guadalajara, México",0
SAN MARCOS,CANTERA,819,44330,Guadalajara,20.6966917,-103.3150026,OK,"CANTERA 819, SAN MARCOS, 44330, Guadalajara, México",0
FRACC REAL DEL BOSQUE,BERROCAL,449,45130,zapopan,20.7460708,-103.3969295,OK,"BERROCAL 449, FRACC REAL DEL BOSQUE, 45130, zapopan, México",0
MESA DE LOS OCOTES,BETABEL,23,45189,zapopan,20.765936,-103.3434788,OK,"BETABEL 23, MESA DE LOS OCOTES, 45189, zapopan, México",0
PARQUE INDUST EL ALA,FUNDICION,2131,44490,Guadalajara,20.6255231,-103.3340945,OK,"FUNDICION 2131, PARQUE INDUST EL ALA, 44490, Guadalajara, México",0
FRACC JARDINES DE BELEN,TORONJA,41,45200,zapopan,20.8127107,-103.482546,OK,"TORONJA 41, FRACC JARDINES DE BELEN, 45200, zapopan, México",0
LA ESPERANZA,IGUALDAD,186,44300,Guadalajara,20.7097772,-103.319574,OK,"IGUALDAD 186, LA ESPERANZA, 44300, Guadalajara, México",0
MEZQUITAN COUNTRY,DIAGONAL NAJERA,1876,44260,Guadalajara,20.6923623,-103.3656108,OK,"DIAGONAL NAJERA 1876, MEZQUITAN COUNTRY, 44260, Guadalajara, México",0
VALLARTA SAN JORGE,TUCIDIDES,156,44690,Guadalajara,20.6782031,-103.3959828,OK,"TUCIDIDES 156, VALLARTA SAN JORGE, 44690, Guadalajara, México",0
SAN JUAN DE OCOTAN,MIGUEL MIRAMON,13,45019,zapopan,20.7069491,-103.4540669,OK,"MIGUEL MIRAMON 13, SAN JUAN DE OCOTAN, 45019, zapopan, México",0
TABACHINES,PASEO DE LOS AV,3101,45188,zapopan,20.7408232,-103.3687889,OK,"PASEO DE LOS AV 3101, TABACHINES, 45188, zapopan, México",0
TRANSITO,AV CIRCUNVALANC,479,44298,Guadalajara,20.705717,-103.3399585,ZERO_RESULTS,"AV CIRCUNVALANC 479, TRANSITO, 44298, Guadalajara, México",1
RESIDENCIAL TESISTAN,AV SAN MATEO,1115,45200,zapopan,20.7943588,-103.4682866,OK,"AV SAN MATEO 1115, RESIDENCIAL TESISTAN, 45200, zapopan, México",0
INDEPENDENCIA,ROGELIO BACON,2280,44290,Guadalajara,20.704908,-103.3332698,OK,"ROGELIO BACON 2280, INDEPENDENCIA, 44290, Guadalajara, México",0
REAL QUINTAS DEL VALLE,CIRCUITO REAL S,0,45138,zapopan,20.7531188,-103.4361485,OK,"CIRCUITO REAL S 0, REAL QUINTAS DEL VALLE, 45138, zapopan, México",0
U H FOVISSSTE ESTADI,LISBOA,28,44307,Guadalajara,20.7140427,-103.3175821,ZERO_RESULTS,"LISBOA 28, U H FOVISSSTE ESTADI, 44307, Guadalajara, México",1
VISTA HERMOSA,AV VISTA HERMO,3763,45189,zapopan,20.7595336,-103.3334617,OK,"AV VISTA HERMO 3763, VISTA HERMOSA, 45189, zapopan, México",0
LA AURORA,SALVADOR LOPEZ,1750,44790,Guadalajara,20.6615108,-103.2837726,OK,"SALVADOR LOPEZ 1750, LA AURORA, 44790, Guadalajara, México",0
RESID LAS ARBOLEDAS,AURORA BOREAL N,4170,45070,zapopan,20.6282613,-103.4283633,OK,"AURORA BOREAL N 4170, RESID LAS ARBOLEDAS, 45070, zapopan, México",0
SAN ANDRES,AVELINO M PRESA,3335,44810,Guadalajara,20.6611419,-103.2904612,OK,"AVELINO M PRESA 3335, SAN ANDRES, 44810, Guadalajara, México",0
OBLATOS PONIENTE,HACIENDA LA PUR,2415,44700,Guadalajara,20.6958496,-103.2980962,OK,"HACIENDA LA PUR 2415, OBLATOS PONIENTE, 44700, Guadalajara, México",0
EL HUMEDO,RIO ACAPONETA,2,45200,zapopan,20.7940686,-103.4916041,OK,"RIO ACAPONETA 2, EL HUMEDO, 45200, zapopan, México",0
LOMAS DEL PRADERO,AV PRESIDENTE,2235,44840,Guadalajara,20.6471994,-103.3132516,OK,"AV PRESIDENTE 2235, LOMAS DEL PRADERO, 44840, Guadalajara, México",0
POLANQUITO,MIGUEL MACIAS,3653,44969,Guadalajara,20.6177446,-103.3724473,ZERO_RESULTS,"MIGUEL MACIAS 3653, POLANQUITO, 44969, Guadalajara, México",1
SAN ANDRES,GOMEZ FARIAS,2319,44810,Guadalajara,20.6606171,-103.3015475,OK,"GOMEZ FARIAS 2319, SAN ANDRES, 44810, Guadalajara, México",0
SAN RAFAEL,CARLOS GONZALEZ,280,44810,Guadalajara,20.6570889,-103.2966814,OK,"CARLOS GONZALEZ 280, SAN RAFAEL, 44810, Guadalajara, México",0
HUENTITAN EL BAJO,VOLCAN FUJIYAMA,4413,44250,Guadalajara,20.7390409,-103.3189799,OK,"VOLCAN FUJIYAMA 4413, HUENTITAN EL BAJO, 44250, Guadalajara, México",0
EL BATAN,ALCALDE,288,45190,zapopan,20.7208648,-103.3458239,OK,"ALCALDE 288, EL BATAN, 45190, zapopan, México",0
BATALLON SN PATRICIO,CALZADA INDEPEN,503,44300,Guadalajara,20.7164167,-103.3194369,OK,"CALZADA INDEPEN 503, BATALLON SN PATRICIO, 44300, Guadalajara, México",0
INF LA TUZANIA,AV DE LAS PALME,1246,45138,zapopan,20.7344508,-103.4162516,OK,"AV DE LAS PALME 1246, INF LA TUZANIA, 45138, zapopan, México",0
AMERICANA,COLONIAS,221,44160,Guadalajara,20.6727444,-103.3658586,OK,"COLONIAS 221, AMERICANA, 44160, Guadalajara, México",0
ECHEVERRIA,JOSE ROJO,958,44970,Guadalajara,20.6222964,-103.3610115,OK,"JOSE ROJO 958, ECHEVERRIA, 44970, Guadalajara, México",0
UNIDAD BELISARIO DOM,JOSE LUIS MORA,1212,44329,Guadalajara,20.6847872,-103.3218364,OK,"JOSE LUIS MORA 1212, UNIDAD BELISARIO DOM, 44329, Guadalajara, México",0
JARDINES DEL NILO,HERNANDO ALVARA,3254,44860,Guadalajara,20.6436443,-103.2935933,OK,"HERNANDO ALVARA 3254, JARDINES DEL NILO, 44860, Guadalajara, México",0
SAN VICENTE,MONTES MARCIANO,2173,44330,Guadalajara,20.7037749,-103.3160088,OK,"MONTES MARCIANO 2173, SAN VICENTE, 44330, Guadalajara, México",0
HERMOSA PROVIN ZO TE,ARQUIMIDES,630,44770,Guadalajara,20.6710634,-103.2859073,OK,"ARQUIMIDES 630, HERMOSA PROVIN ZO TE, 44770, Guadalajara, México",0
RINCONADA DE HUENTITAN,JUAN CARRASCO,5234,44250,Guadalajara,20.7334817,-103.3218215,OK,"JUAN CARRASCO 5234, RINCONADA DE HUENTITAN, 44250, Guadalajara, México",0
BALCONES DE OBLATOS,ROSA RODRIGUEZ,3876,44720,Guadalajara,20.6951433,-103.2768884,OK,"ROSA RODRIGUEZ 3876, BALCONES DE OBLATOS, 44720, Guadalajara, México",0
LOMAS DEL GALLO,FERNANDO SOLIS,1338,44760,Guadalajara,20.6791063,-103.2705275,OK,"FERNANDO SOLIS 1338, LOMAS DEL GALLO, 44760, Guadalajara, México",0
COUNTRY CLUB,AV JORGE ALVARE,1535,44610,Guadalajara,20.7021029,-103.367393,ZERO_RESULTS,"AV JORGE ALVARE 1535, COUNTRY CLUB, 44610, Guadalajara, México",1
OBLATOS PONIENTE,HDA LAS CRUCES,2158,44700,Guadalajara,20.6958496,-103.2980962,OK,"HDA LAS CRUCES 2158, OBLATOS PONIENTE, 44700, Guadalajara, México",0
CIUDAD DEL SOL,QUETZALCOATL,232,45050,zapopan,20.6494332,-103.4073144,OK,"QUETZALCOATL 232, CIUDAD DEL SOL, 45050, zapopan, México",0
SANTA FE,EMILIANO ZAPATA,574,45168,zapopan,20.7146168,-103.3916907,OK,"EMILIANO ZAPATA 574, SANTA FE, 45168, zapopan, México",0
RESIDENCIAL AZALEAS,SERVIDOR PUBLIC,1425,45230,zapopan,20.619359,-103.4540669,ZERO_RESULTS,"SERVIDOR PUBLIC 1425, RESIDENCIAL AZALEAS, 45230, zapopan, México",1
RINCONADA DE HUENTITAN,JOSE MARIA CANA,5128,44250,Guadalajara,20.7241389,-103.3199847,OK,"JOSE MARIA CANA 5128, RINCONADA DE HUENTITAN, 44250, Guadalajara, México",0
MIRAVALLE II,HERMENEGILDO BU,4308,44990,Guadalajara,20.6155632,-103.3466663,OK,"HERMENEGILDO BU 4308, MIRAVALLE II, 44990, Guadalajara, México",0
ALTAMIRA,AV AMERICA,580,45160,zapopan,20.7139958,-103.3832788,ZERO_RESULTS,"AV AMERICA 580, ALTAMIRA, 45160, zapopan, México",1
FRACC MIRADOR D SN I,AV INDUSTRIA TE,2030,45133,zapopan,20.7539705,-103.3896942,OK,"AV INDUSTRIA TE 2030, FRACC MIRADOR D SN I, 45133, zapopan, México",0
BENITO JUAREZ,ADOLFO LOPEZ MA,4754,45199,zapopan,20.7313122,-103.3385042,OK,"ADOLFO LOPEZ MA 4754, BENITO JUAREZ, 45199, zapopan, México",0
NUEVO MEXICO,COPALITA,2711,45138,zapopan,20.7647237,-103.4396973,OK,"COPALITA 2711, NUEVO MEXICO, 45138, zapopan, México",0
EL BRISE#O,CONSTELACION,7,45236,zapopan,20.622525,-103.4358741,OK,"CONSTELACION 7, EL BRISE#O, 45236, zapopan, México",0
BALCONES DE OBLATOS,HACIENDA DEL CA,2275,44720,Guadalajara,20.6895609,-103.2851073,ZERO_RESULTS,"HACIENDA DEL CA 2275, BALCONES DE OBLATOS, 44720, Guadalajara, México",1
EL BRISE?,PASEO DE LA MAT,200,45236,zapopan,20.6193793,-103.4352826,OK,"PASEO DE LA MAT 200, EL BRISE?, 45236, zapopan, México",0
VILLA FONTANA DIAMANTE,AV LAS TORRES,1896,45200,zapopan,20.7793015,-103.4709142,OK,"AV LAS TORRES 1896, VILLA FONTANA DIAMANTE, 45200, zapopan, México",0
U H EL ZALATE,JOSE FERNANDEZ,1123,44760,Guadalajara,20.6786279,-103.2740842,OK,"JOSE FERNANDEZ 1123, U H EL ZALATE, 44760, Guadalajara, México",0
REAL DE TESISTAN,PASEO DE LA ARB,176,45200,zapopan,20.7826297,-103.4722075,OK,"PASEO DE LA ARB 176, REAL DE TESISTAN, 45200, zapopan, México",0
VALLE REAL,PASEO SAN ARTUR,685,45019,zapopan,20.724178,-103.4464948,OK,"PASEO SAN ARTUR 685, VALLE REAL, 45019, zapopan, México",0
BARRANQUITAS,PINO SUAREZ,879,44270,Guadalajara,20.6902983,-103.3467196,OK,"PINO SUAREZ 879, BARRANQUITAS, 44270, Guadalajara, México",0
ZALATE II,OTILIO GONZALEZ,1116,44760,Guadalajara,20.6793445,-103.2748488,OK,"OTILIO GONZALEZ 1116, ZALATE II, 44760, Guadalajara, México",0
PANORAMICA HUENTITAN,CALZADA,4500,44259,Guadalajara,20.7337268,-103.3077413,OK,"CALZADA 4500, PANORAMICA HUENTITAN, 44259, Guadalajara, México",0
BOSQUES D LA CANTERA,PRIV OPALO,17,44306,Guadalajara,20.7155528,-103.3156425,OK,"PRIV OPALO 17, BOSQUES D LA CANTERA, 44306, Guadalajara, México",0
LOS ROBLES,CALLE LOS ROBLE,395,45134,zapopan,20.76045,-103.4237244,ZERO_RESULTS,"CALLE LOS ROBLE 395, LOS ROBLES, 45134, zapopan, México",1
ARANDAS,HACIENDA DEL CO,3363,44720,Guadalajara,20.6915829,-103.287272,OK,"HACIENDA DEL CO 3363, ARANDAS, 44720, Guadalajara, México",0
VALENTIN GOMEZ FARIA,CANUTO ELIAS,3414,44977,Guadalajara,20.6191343,-103.3630249,OK,"CANUTO ELIAS 3414, VALENTIN GOMEZ FARIA, 44977, Guadalajara, México",0
LOS ALMENDROS,ANTONIO GARCIA,3912,44240,Guadalajara,20.7144294,-103.3297904,OK,"ANTONIO GARCIA 3912, LOS ALMENDROS, 44240, Guadalajara, México",0
HELIODORO HERNANDEZ,MIGUEL SANCHEZ,3789,44720,Guadalajara,20.6948636,-103.2781313,OK,"MIGUEL SANCHEZ 3789, HELIODORO HERNANDEZ, 44720, Guadalajara, México",0
MESA COLORADA PTE,DELLI,1825,45189,zapopan,20.7705003,-103.3479558,OK,"DELLI 1825, MESA COLORADA PTE, 45189, zapopan, México",0
EL COLLY URBANO I,VOLCAN VESUBIO,2321,45070,zapopan,20.6413488,-103.4276284,OK,"VOLCAN VESUBIO 2321, EL COLLY URBANO I, 45070, zapopan, México",0
AGRICOLA,DALIA,138,45236,zapopan,20.6164199,-103.4309929,OK,"DALIA 138, AGRICOLA, 45236, zapopan, México",0
ARENALES TAPATIOS,AV GUADALUPE,132,45066,zapopan,20.6365725,-103.4603705,OK,"AV GUADALUPE 132, ARENALES TAPATIOS, 45066, zapopan, México",0
VILLAS SAN IGNACIO,PRIV LUIS G MON,337,45180,zapopan,20.7361467,-103.3527111,ZERO_RESULTS,"PRIV LUIS G MON 337, VILLAS SAN IGNACIO, 45180, zapopan, México",1
OBLATOS PONIENTE,HACIENDA DE LAS,2299,44700,Guadalajara,20.6958496,-103.2980962,ZERO_RESULTS,"HACIENDA DE LAS 2299, OBLATOS PONIENTE, 44700, Guadalajara, México",1
TALPITA,SANTO TOMAS,1786,44719,Guadalajara,20.6835307,-103.3103183,OK,"SANTO TOMAS 1786, TALPITA, 44719, Guadalajara, México",0
VILLA FONTANA DIAMANTE,ARENISCA,1896,45200,zapopan,20.7793015,-103.4709142,OK,"ARENISCA 1896, VILLA FONTANA DIAMANTE, 45200, zapopan, México",0
ARTESANOS,INDEPENDENCIA,919,44200,Guadalajara,20.6868335,-103.3572848,ZERO_RESULTS,"INDEPENDENCIA 919, ARTESANOS, 44200, Guadalajara, México",1
LOMAS DE MIRAMAR,URANIO,31,45060,zapopan,20.6391341,-103.4439519,ZERO_RESULTS,"URANIO 31, LOMAS DE MIRAMAR, 45060, zapopan, México",1
VALLE DE LOS MOLINOS,BERNA,75,45200,zapopan,20.8557347,-103.4231866,OK,"BERNA 75, VALLE DE LOS MOLINOS, 45200, zapopan, México",0
REAL DE VALDEPE?S,RINCONADA DEL C,1327,45130,zapopan,20.756436,-103.400611,OK,"RINCONADA DEL C 1327, REAL DE VALDEPE?S, 45130, zapopan, México",0
LA ESTRADA,HIDALAGO,6,45200,zapopan,20.7928023,-103.475746,OK,"HIDALAGO 6, LA ESTRADA, 45200, zapopan, México",0
GARIBAY,DAMASCO,785,44750,Guadalajara,20.6736568,-103.295105,OK,"DAMASCO 785, GARIBAY, 44750, Guadalajara, México",0
U. H. BENITO JUAREZ II,CREDITO,4049,44770,Guadalajara,20.6660172,-103.2749591,OK,"CREDITO 4049, U. H. BENITO JUAREZ II, 44770, Guadalajara, México",0
EL CENTRO,JUAREZ,400,44100,Guadalajara,20.6752833,-103.3487526,OK,"JUAREZ 400, EL CENTRO, 44100, Guadalajara, México",0
ARENALES TAPATIOS,DIAMANTE,114,45066,zapopan,20.6340227,-103.4564579,OK,"DIAMANTE 114, ARENALES TAPATIOS, 45066, zapopan, México",0
VILLAS DE GADALUPE,AV PATRIA,4177,44720,Guadalajara,20.6849705,-103.2719779,OK,"AV PATRIA 4177, VILLAS DE GADALUPE, 44720, Guadalajara, México",0
TETLAN,GIGANTES,108,44820,Guadalajara,20.6563045,-103.2807779,ZERO_RESULTS,"GIGANTES 108, TETLAN, 44820, Guadalajara, México",1
FRACC REAL DEL BOSQUE,CALLE CAMPO REA,371,45130,zapopan,20.7553494,-103.3950919,OK,"CALLE CAMPO REA 371, FRACC REAL DEL BOSQUE, 45130, zapopan, México",0
U H EL SAUZ INF,JAIME TORRES B,3090,44987,Guadalajara,20.6236348,-103.3945976,OK,"JAIME TORRES B 3090, U H EL SAUZ INF, 44987, Guadalajara, México",0
U H LAZARO CARDENAS,OTHON BLANCO CA,4087,44490,Guadalajara,20.6214684,-103.3341835,ZERO_RESULTS,"OTHON BLANCO CA 4087, U H LAZARO CARDENAS, 44490, Guadalajara, México",1
NUEVO MEXICO,6 DE ENERO,3239,45138,zapopan,20.7576114,-103.4332169,OK,"6 DE ENERO 3239, NUEVO MEXICO, 45138, zapopan, México",0
HERMOSA PROVIN ZO TE,TELEFONISTAS,3331,44770,Guadalajara,20.6684351,-103.2856733,OK,"TELEFONISTAS 3331, HERMOSA PROVIN ZO TE, 44770, Guadalajara, México",0
MIRAVALLE II,PEDRO PATINO,643,44990,Guadalajara,20.6171935,-103.3515091,ZERO_RESULTS,"PEDRO PATINO 643, MIRAVALLE II, 44990, Guadalajara, México",1
GENERAL REAL,MARCONI,17,44400,Guadalajara,20.6682224,-103.3241833,OK,"MARCONI 17, GENERAL REAL, 44400, Guadalajara, México",0
BENITO JUAREZ,JUAN MANUEL RUV,1992,45199,Guadalajara,20.7349255,-103.3399585,OK,"JUAN MANUEL RUV 1992, BENITO JUAREZ, 45199, Guadalajara, México",0
EJIDAL LOMA BONITA,PEDRO MORENO,3205,45085,zapopan,20.631308,-103.4017099,OK,"PEDRO MORENO 3205, EJIDAL LOMA BONITA, 45085, zapopan, México",0
5 DE MAYO,RAMON MARQUEZ,362,44970,Guadalajara,20.6248572,-103.3530714,OK,"RAMON MARQUEZ 362, 5 DE MAYO, 44970, Guadalajara, México",0
COLLY SITIO,ROMANA,6570,45036,zapopan,20.6539128,-103.4391923,OK,"ROMANA 6570, COLLY SITIO, 45036, zapopan, México",0
COPALITA,AV AMARANTO,175,45200,zapopan,20.8101768,-103.4544621,OK,"AV AMARANTO 175, COPALITA, 45200, zapopan, México",0
BEATRIZ HERNANDEZ,GAZA,1333,44760,Guadalajara,20.6795627,-103.2728412,ZERO_RESULTS,"GAZA 1333, BEATRIZ HERNANDEZ, 44760, Guadalajara, México",1
ALTAMIRA,AV AMERICA,580,45160,zapopan,20.7139958,-103.3832788,ZERO_RESULTS,"AV AMERICA 580, ALTAMIRA, 45160, zapopan, México",1
RNDA DE PAZ,ALBANILES,543,44860,Guadalajara,20.6480281,-103.307817,OK,"ALBANILES 543, RNDA DE PAZ, 44860, Guadalajara, México",0
LA MARTINICA,PASEO DE LOS AL,79,45185,zapopan,20.7506343,-103.3630608,ZERO_RESULTS,"PASEO DE LOS AL 79, LA MARTINICA, 45185, zapopan, México",1
REAL DE VALDEPE?S,ALAMBIQUE,51,45130,zapopan,20.7561115,-103.4015168,OK,"ALAMBIQUE 51, REAL DE VALDEPE?S, 45130, zapopan, México",0
VICTOR HUGO,PRIVADA COLON,150,45190,zapopan,20.7212215,-103.3545682,OK,"PRIVADA COLON 150, VICTOR HUGO, 45190, zapopan, México",0
HUENTITAN EL BAJO,VOLCAN VIRGEN,182,44250,Guadalajara,20.7305287,-103.3169957,OK,"VOLCAN VIRGEN 182, HUENTITAN EL BAJO, 44250, Guadalajara, México",0
LA LOMA,LUIS PAEZ BROTC,1574,44410,Guadalajara,20.6606419,-103.3218702,OK,"LUIS PAEZ BROTC 1574, LA LOMA, 44410, Guadalajara, México",0
EL ARENAL,CUAUHTEMOC,132,45350,zapopan,20.7727234,-103.6980862,OK,"CUAUHTEMOC 132, EL ARENAL, 45350, zapopan, México",0
COLINAS DE ATEMAJAC,AV AURELIO ORTE,1176,45170,zapopan,20.7208854,-103.3674014,OK,"AV AURELIO ORTE 1176, COLINAS DE ATEMAJAC, 45170, zapopan, México",0
12 DE DICIEMBRE,TRUENO,260,45068,zapopan,20.6491505,-103.4571066,OK,"TRUENO 260, 12 DE DICIEMBRE, 45068, zapopan, México",0
JARDINES DEL NILO,MANUEL RIVERA C,2818,44860,Guadalajara,20.6446505,-103.2885224,OK,"MANUEL RIVERA C 2818, JARDINES DEL NILO, 44860, Guadalajara, México",0
LA FLORESTA DEL COLLI,BOULEVARD PUERT,26,45116,zapopan,20.7155297,-103.4193903,OK,"BOULEVARD PUERT 26, LA FLORESTA DEL COLLI, 45116, zapopan, México",0
AMERICANA,MEXICALLTZINGO,1944,44160,Guadalajara,20.6683939,-103.3633498,OK,"MEXICALLTZINGO 1944, AMERICANA, 44160, Guadalajara, México",0
VISTA HERMOSA,VISTA BONITA,739,45189,zapopan,20.7621201,-103.3342766,OK,"VISTA BONITA 739, VISTA HERMOSA, 45189, zapopan, México",0
LADRON DE GUEVARA,AVENIDA AMERICA,620,44600,Guadalajara,20.6875675,-103.3729412,OK,"AVENIDA AMERICA 620, LADRON DE GUEVARA, 44600, Guadalajara, México",0
VALLARTA SAN JORGE,EUCLIDES,3302,44690,Guadalajara,20.6753011,-103.3981559,OK,"EUCLIDES 3302, VALLARTA SAN JORGE, 44690, Guadalajara, México",0
HDA SAN ISIDRO,LA VILLA,455,45147,zapopan,20.7303804,-103.3977222,OK,"LA VILLA 455, HDA SAN ISIDRO, 45147, zapopan, México",0
TIERRA RESIDENCIAL,SAN MATEO,2010,45200,zapopan,20.8028183,-103.4708175,OK,"SAN MATEO 2010, TIERRA RESIDENCIAL, 45200, zapopan, México",0
PASEOS DEL SOL,TOMAS BALCAZAR,5404,45079,zapopan,20.6371278,-103.4270208,OK,"TOMAS BALCAZAR 5404, PASEOS DEL SOL, 45079, zapopan, México",0
JARDINES DE LA PAZ,TEJEDORES,569,44860,Guadalajara,20.6474171,-103.3072189,OK,"TEJEDORES 569, JARDINES DE LA PAZ, 44860, Guadalajara, México",0
LOMAS DE POLANCO,RAMON ALCORTA,1597,44960,Guadalajara,20.6305683,-103.3687218,OK,"RAMON ALCORTA 1597, LOMAS DE POLANCO, 44960, Guadalajara, México",0
"FRACC, LOS MOLINOS",CTO OBSIDIANA,39,45200,zapopan,20.8476145,-103.4219418,OK,"CTO OBSIDIANA 39, FRACC, LOS MOLINOS, 45200, zapopan, México",0
FRACC CUSPIDE,CAMINO AL POTRE,1200,45200,zapopan,20.8038746,-103.4967173,OK,"CAMINO AL POTRE 1200, FRACC CUSPIDE, 45200, zapopan, México",0
EL MIRADOR,EMILIANO ZAPATA,780,44370,Guadalajara,20.6820247,-103.3161386,ZERO_RESULTS,"EMILIANO ZAPATA 780, EL MIRADOR, 44370, Guadalajara, México",1
LA PALMITA,MANUEL GONZALEZ,518,45180,zapopan,20.7299998,-103.3587965,OK,"MANUEL GONZALEZ 518, LA PALMITA, 45180, zapopan, México",0
BLANCO Y CUELLAR,EMILIO RABAZA,2132,44730,Guadalajara,20.6795279,-103.3046447,OK,"EMILIO RABAZA 2132, BLANCO Y CUELLAR, 44730, Guadalajara, México",0
INDEPENDENCIA,ROGELIO BACON,2280,44290,Guadalajara,20.704908,-103.3332698,OK,"ROGELIO BACON 2280, INDEPENDENCIA, 44290, Guadalajara, México",0
HDA SAN ISIDRO,EJIDO,570,45147,zapopan,20.7311616,-103.398173,OK,"EJIDO 570, HDA SAN ISIDRO, 45147, zapopan, México",0
FRACC HACIENDA LAS PALOMAS,CALLE DEL AGUA,365,45200,zapopan,20.8045017,-103.471341,OK,"CALLE DEL AGUA 365, FRACC HACIENDA LAS PALOMAS, 45200, zapopan, México",0
JARDINES DE LA CRUZ,REYES CATOLICOS,2151,44950,Guadalajara,20.6456359,-103.3754284,OK,"REYES CATOLICOS 2151, JARDINES DE LA CRUZ, 44950, Guadalajara, México",0
MIRAMAR,BAHIA MAGDALENA,5,45060,zapopan,20.6407578,-103.4490409,OK,"BAHIA MAGDALENA 5, MIRAMAR, 45060, zapopan, México",0
VALLE REAL,AV RAMON CORONA,2748,45019,zapopan,20.7350169,-103.4591247,OK,"AV RAMON CORONA 2748, VALLE REAL, 45019, zapopan, México",0
JARDINES D NVO MEXIC,SEXTA PTE,535,45138,zapopan,20.7693541,-103.453446,OK,"SEXTA PTE 535, JARDINES D NVO MEXIC, 45138, zapopan, México",0
PARAISOS DEL COLLY,GALEANA,1068,45069,zapopan,20.6508689,-103.4549679,OK,"GALEANA 1068, PARAISOS DEL COLLY, 45069, zapopan, México",0
ARENALES TAPATIOS,CROMITA,69,45066,zapopan,20.6333153,-103.4591793,OK,"CROMITA 69, ARENALES TAPATIOS, 45066, zapopan, México",0
LINDAVISTA,ALLENDE,216,45169,zapopan,20.7225403,-103.3986393,OK,"ALLENDE 216, LINDAVISTA, 45169, zapopan, México",0
HIGUERILLAS,MARIANO RODRIGU,2669,44470,Guadalajara,20.6327983,-103.3489234,OK,"MARIANO RODRIGU 2669, HIGUERILLAS, 44470, Guadalajara, México",0
OBLATOS,BATALLA DE IZUC,2508,44700,Guadalajara,20.6958496,-103.2980962,OK,"BATALLA DE IZUC 2508, OBLATOS, 44700, Guadalajara, México",0
LA FLORESTA DEL COLLI,BOULEVARD PUERT,5430,45116,zapopan,20.7155297,-103.4193903,OK,"BOULEVARD PUERT 5430, LA FLORESTA DEL COLLI, 45116, zapopan, México",0
INF LA TUZANIA,AND OYAMELES,1124,45138,zapopan,20.7373175,-103.4153366,OK,"AND OYAMELES 1124, INF LA TUZANIA, 45138, zapopan, México",0
FRACC LOS PINOS,AV  COMPOSITORE,3850,45120,zapopan,20.6788618,-103.4074211,OK,"AV  COMPOSITORE 3850, FRACC LOS PINOS, 45120, zapopan, México",0
LA HACIENDITA,SAN MARTIN,2341,45230,zapopan,20.614487,-103.4510511,OK,"SAN MARTIN 2341, LA HACIENDITA, 45230, zapopan, México",0
MARAVILLA,HACIENDA DE GUA,1124,44700,Guadalajara,20.70084,-103.30447,OK,"HACIENDA DE GUA 1124, MARAVILLA, 44700, Guadalajara, México",0
EL MANANTIAL S REFOR,AVDE LA PATRIA,202,44470,Guadalajara,20.6220647,-103.3430786,OK,"AVDE LA PATRIA 202, EL MANANTIAL S REFOR, 44470, Guadalajara, México",0
HOGARES D NVO MEXICO,AV AVIACION,36,45138,zapopan,20.7607636,-103.4394351,OK,"AV AVIACION 36, HOGARES D NVO MEXICO, 45138, zapopan, México",0
LOMAS DEL CENTINELA,PASEO DEL OLMO,328,45187,zapopan,20.7553425,-103.3792621,OK,"PASEO DEL OLMO 328, LOMAS DEL CENTINELA, 45187, zapopan, México",0
DIVISION DEL NORTE,TERUEL,3693,44230,Guadalajara,20.7217932,-103.3379969,OK,"TERUEL 3693, DIVISION DEL NORTE, 44230, Guadalajara, México",0
TETLAN,AURELIA GUEVARA,3518,44820,Guadalajara,20.6563045,-103.2807779,ZERO_RESULTS,"AURELIA GUEVARA 3518, TETLAN, 44820, Guadalajara, México",1
ECHEVERRIA,JOSE ARTEAGA,2985,44970,Guadalajara,20.6256839,-103.3666996,OK,"JOSE ARTEAGA 2985, ECHEVERRIA, 44970, Guadalajara, México",0
ELECTRICISTAS,RAMOS ARIZPE,451,44810,Guadalajara,20.6549543,-103.2980962,ZERO_RESULTS,"RAMOS ARIZPE 451, ELECTRICISTAS, 44810, Guadalajara, México",1
UNIDAD JARDINES SEAT,JARDINES DE LOS,1233,45180,zapopan,20.7361467,-103.3527111,OK,"JARDINES DE LOS 1233, UNIDAD JARDINES SEAT, 45180, zapopan, México",0
RANCHO NUEVO,CELERINO NAVARR,4135,44240,zapopan,20.7173252,-103.3226322,OK,"CELERINO NAVARR 4135, RANCHO NUEVO, 44240, zapopan, México",0
MODERNA,AV ESPANA,1092,44190,Guadalajara,20.6592017,-103.3525373,OK,"AV ESPANA 1092, MODERNA, 44190, Guadalajara, México",0
REVOLUCION SEGUNDA SECCION,REVOLUCION,51,45200,zapopan,20.8271097,-103.4344083,OK,"REVOLUCION 51, REVOLUCION SEGUNDA SECCION, 45200, zapopan, México",0
HUENTITAN EL BAJO,VOLCAN MAIPO,340,44250,Guadalajara,20.7418207,-103.3153473,OK,"VOLCAN MAIPO 340, HUENTITAN EL BAJO, 44250, Guadalajara, México",0
LOMAS DL VALLE VI UN,CANCER,3992,45129,zapopan,20.6850906,-103.4083204,OK,"CANCER 3992, LOMAS DL VALLE VI UN, 45129, zapopan, México",0
MARAVILLA,SANTA JULIA,1334,44700,Guadalajara,20.6971899,-103.3050758,OK,"SANTA JULIA 1334, MARAVILLA, 44700, Guadalajara, México",0
EL CARMEN,FRANCISCO MARCO,2616,44980,Guadalajara,20.6245424,-103.385549,OK,"FRANCISCO MARCO 2616, EL CARMEN, 44980, Guadalajara, México",0
BEATRIZ HERNANDEZ,MARGARITA GUTIE,3497,44760,Guadalajara,20.6814629,-103.2848051,OK,"MARGARITA GUTIE 3497, BEATRIZ HERNANDEZ, 44760, Guadalajara, México",0
ARANDAS,HACIENDA LA ERR,1877,44720,Guadalajara,20.6886638,-103.2887465,OK,"HACIENDA LA ERR 1877, ARANDAS, 44720, Guadalajara, México",0
SAN VICENTE,PUERTO SOTO LA,2280,44330,Guadalajara,20.7021367,-103.3110864,OK,"PUERTO SOTO LA 2280, SAN VICENTE, 44330, Guadalajara, México",0
RESIDENCIAL LA CRUZ,ISLA ABACO,3086,44950,Guadalajara,20.6372977,-103.3783132,OK,"ISLA ABACO 3086, RESIDENCIAL LA CRUZ, 44950, Guadalajara, México",0
BOSQUES D L VICTORIA,PENINSULA,2713,44540,Guadalajara,20.6469377,-103.392191,OK,"PENINSULA 2713, BOSQUES D L VICTORIA, 44540, Guadalajara, México",0
FEDERALISMO,MONTE HIMALAYA,1416,44350,Guadalajara,20.6915679,-103.3171196,OK,"MONTE HIMALAYA 1416, FEDERALISMO, 44350, Guadalajara, México",0
PRADOS TEPEYAC,PRADO DE LAS RO,308,45050,zapopan,20.6517437,-103.4136118,ZERO_RESULTS,"PRADO DE LAS RO 308, PRADOS TEPEYAC, 45050, zapopan, México",1
VICENTE GUERRERO,C CEDROS,15,45134,zapopan,20.7626388,-103.4496737,OK,"C CEDROS 15, VICENTE GUERRERO, 45134, zapopan, México",0
VILLA FONTANA DIAMANTE,FUENTE BRILLANT,1730,45200,zapopan,20.7792911,-103.4708797,OK,"FUENTE BRILLANT 1730, VILLA FONTANA DIAMANTE, 45200, zapopan, México",0
MIRAVALLE,JOSE JARAMILLO,526,44990,Guadalajara,20.6155611,-103.3527505,OK,"JOSE JARAMILLO 526, MIRAVALLE, 44990, Guadalajara, México",0
JARDINES DEL COUNTRY,ENRIQUE DIAZ DE,2336,44210,Guadalajara,20.7070511,-103.3601728,ZERO_RESULTS,"ENRIQUE DIAZ DE 2336, JARDINES DEL COUNTRY, 44210, Guadalajara, México",1
LA FLORIDA,FLORAL,15,45234,zapopan,20.5994925,-103.427324,OK,"FLORAL 15, LA FLORIDA, 45234, zapopan, México",0
GENERAL REAL,PENSADOR MEXICA,1070,44400,Guadalajara,20.665244,-103.3312763,OK,"PENSADOR MEXICA 1070, GENERAL REAL, 44400, Guadalajara, México",0
AGRICOLA,DALIA,138,45236,zapopan,20.6164199,-103.4309929,OK,"DALIA 138, AGRICOLA, 45236, zapopan, México",0
FRACC CUSPIDE,SAN MATEO 1155,27,45200,zapopan,20.7948552,-103.4680094,OK,"SAN MATEO 1155 27, FRACC CUSPIDE, 45200, zapopan, México",0
PRADOS TEPEYAC,PRADO DE LAS GA,4468,45050,zapopan,20.6517437,-103.4136118,ZERO_RESULTS,"PRADO DE LAS GA 4468, PRADOS TEPEYAC, 45050, zapopan, México",1
PENAL,PEDRO CELESTINO,482,44730,Guadalajara,20.6676605,-103.3011651,OK,"PEDRO CELESTINO 482, PENAL, 44730, Guadalajara, México",0
OBLATOS PONIENTE,HACIENDA LA GAV,3208,44700,Guadalajara,20.6958496,-103.2980962,ZERO_RESULTS,"HACIENDA LA GAV 3208, OBLATOS PONIENTE, 44700, Guadalajara, México",1
U H ATLAS,RIO VOLGA,1386,44870,Guadalajara,20.6506175,-103.3306929,OK,"RIO VOLGA 1386, U H ATLAS, 44870, Guadalajara, México",0
LOMAS DE RIO VERDE,DEMOSTENES,3550,44720,Guadalajara,20.685375,-103.2847818,OK,"DEMOSTENES 3550, LOMAS DE RIO VERDE, 44720, Guadalajara, México",0
SANTA ROSA,MELQUIADES CAMP,2289,44700,Guadalajara,20.6958496,-103.2980962,ZERO_RESULTS,"MELQUIADES CAMP 2289, SANTA ROSA, 44700, Guadalajara, México",1
SAN JUAN BOSCO,FELIX BERNARDEL,428,44730,Guadalajara,20.6731521,-103.3081996,ZERO_RESULTS,"FELIX BERNARDEL 428, SAN JUAN BOSCO, 44730, Guadalajara, México",1
VILLAS SAN IGNACIO,PABLO QUIROGA,215,45180,zapopan,20.724594,-103.3668962,OK,"PABLO QUIROGA 215, VILLAS SAN IGNACIO, 45180, zapopan, México",0
SANTA ANA TEPETITLAN,HIDALGO,35,45230,zapopan,20.619359,-103.4540669,OK,"HIDALGO 35, SANTA ANA TEPETITLAN, 45230, zapopan, México",0
EL FORTIN,ALAMO,1359,45066,zapopan,20.6311593,-103.4835357,OK,"ALAMO 1359, EL FORTIN, 45066, zapopan, México",0
LADRON DE GUEVARA,AVENIDA MEXICO,2582,44600,Guadalajara,20.6800329,-103.3822859,OK,"AVENIDA MEXICO 2582, LADRON DE GUEVARA, 44600, Guadalajara, México",0
VALENTIN GOMEZ FARIA,JUAN DE DIOS CO,12,44977,Guadalajara,20.6184232,-103.3637828,ZERO_RESULTS,"JUAN DE DIOS CO 12, VALENTIN GOMEZ FARIA, 44977, Guadalajara, México",1
BOSQUE ESCONDIDO,PASEO DE LOS AL,10,45180,zapopan,20.7207014,-103.3709969,OK,"PASEO DE LOS AL 10, BOSQUE ESCONDIDO, 45180, zapopan, México",0
MORELOS,PELICANO,1272,44910,Guadalajara,20.6492816,-103.3565418,OK,"PELICANO 1272, MORELOS, 44910, Guadalajara, México",0
VILLA UNIVESITARIA,AV PATRIA,1446,45110,zapopan,20.697359,-103.4155674,OK,"AV PATRIA 1446, VILLA UNIVESITARIA, 45110, zapopan, México",0
EL ARENAL,PROLONGACION SA,43,45350,zapopan,20.775698,-103.6951543,OK,"PROLONGACION SA 43, EL ARENAL, 45350, zapopan, México",0
LOMAS DL PARAISO 1,RAFAEL CARDENAS,290,44250,Guadalajara,20.7248011,-103.3191934,OK,"RAFAEL CARDENAS 290, LOMAS DL PARAISO 1, 44250, Guadalajara, México",0
EL BATAN,ANDADOR AGUA AZ,44,45190,zapopan,20.7221877,-103.3438725,OK,"ANDADOR AGUA AZ 44, EL BATAN, 45190, zapopan, México",0
MESA COLORADA PTE,NABO,543,45189,zapopan,20.7630106,-103.346334,OK,"NABO 543, MESA COLORADA PTE, 45189, zapopan, México",0
INDIGENA D MEZQUITAN,18 DE MARZO,409,45190,zapopan,20.7385176,-103.3320104,OK,"18 DE MARZO 409, INDIGENA D MEZQUITAN, 45190, zapopan, México",0
TABACHINES,PASEO DE LOS CH,3040,45188,zapopan,20.7408232,-103.3687889,OK,"PASEO DE LOS CH 3040, TABACHINES, 45188, zapopan, México",0
SAN ISIDRO EJIDAL,NUEVO MEXICO,250,45147,zapopan,20.7300734,-103.3976135,OK,"NUEVO MEXICO 250, SAN ISIDRO EJIDAL, 45147, zapopan, México",0
CIUDAD GRANJA,CALZ DE LOS LA,164,45010,zapopan,20.6782083,-103.4482868,OK,"CALZ DE LOS LA 164, CIUDAD GRANJA, 45010, zapopan, México",0
VILLA FONTANA DIAMANTE,FUENTE GRAFITO,8884,45200,zapopan,20.7794945,-103.4746692,OK,"FUENTE GRAFITO 8884, VILLA FONTANA DIAMANTE, 45200, zapopan, México",0
